[
	{
		"name" : "LRT1",
		"stops" : [
			{
				"name" : "LRT-1 Baclaran",
				"position" : {
					"lat" : 14.534281259799442, 
					"long" : 120.99835932254791
				},
				"details" : {
					"description" : "Description of Baclaran Station",
					"image" : "test",
					"stops" : [
						"x1",
						"x2"
					]
				}
			},
			{
				"name" : "LRT-1 EDSA",
				"position" : {
					"lat" : 14.538759956196797, 
					"long" : 121.00065261125565
				},
				"details" : {
					"description" : "Description of EDSA Station",
					"image" : "test",
					"stops" : [
						"x1",
						"x2"
					]
				}
			},
			{
				"name" : "LRT-1 Libertad",
				"position" : {
					"lat" : 14.547659959876254,  
					"long" : 120.99862486124039
				},
				"details" : {
					"description" : "Description of Libertad Station",
					"image" : "test",
					"stops" : [
						"x1",
						"x2"
					]
				}
			},
			{
				"name" : "LRT-1 Gil Puyat",
				"position" : {
					"lat" : 14.554308765855605, 
					"long" : 120.99710404872894
				},
				"details" : {
					"description" : "Description of Gil Puyat Station",
					"image" : "test",
					"stops" : [
						"x1",
						"x2"
					]
				}
			},
			{
				"name" : "LRT-1 Vito Cruz",
				"position" : {
					"lat" : 14.563402844951298, 
					"long" : 120.99480271339417
				},
				"details" : {
					"description" : "Description of Vito Cruz",
					"image" : "test",
					"stops" : [
						"x1",
						"x2"
					]
				}
			},
			{
				"name" : "LRT-1 Quirino",
				"position" : {
					"lat" : 14.570284811987875, 
					"long" : 120.99151700735092
				},
				"details" : {
					"description" : "Description of Quirino Station",
					"image" : "test",
					"stops" : [
						"x1",
						"x2"
					]
				}
			},
			{
				"name" : "LRT-1 Pedro Gil",
				"position" : {
					"lat" : 14.576600664331668, 
					"long" : 120.9879469871521
				},
				"details" : {
					"description" : "Description of Pedro Gil Station",
					"image" : "test",
					"stops" : [
						"x1",
						"x2"
					]
				}
			},
			{
				"name" : "LRT-1 United Nations",
				"position" : {
					"lat" : 14.582633393281668, 
					"long" : 120.98457545042038
				},
				"details" : {
					"description" : "Description of United Nations Station",
					"image" : "test",
					"stops" : [
						"x1",
						"x2"
					]
				}
			},
			{
				"name" : "LRT-1 Central Terminal",
				"position" : {
					"lat" : 14.59272304864208, 
					"long" : 120.98163306713104
				},
				"details" : {
					"description" : "Description of Central Terminal Station",
					"image" : "test",
					"stops" : [
						"x1",
						"x2"
					]
				}
			},
			{
				"name" : "LRT-1 Carriedo",
				"position" : {
					"lat" : 14.599087574034026, 
					"long" : 120.98134070634842
				},
				"details" : {
					"description" : "Description of Carriedo Station",
					"image" : "test",
					"stops" : [
						"x1",
						"x2"
					]
				}
			},
			{
				"name" : "LRT-1 Doroteo Jose",
				"position" : {
					"lat" : 14.60538702693039, 
					"long" : 120.9820407629013
				},
				"details" : {
					"description" : "Description of Doroteo Jose Station",
					"image" : "test",
					"stops" : [
						"x1",
						"x2"
					]
				}
			},
			{
				"name" : "LRT-1 Bambang",
				"position" : {
					"lat" : 14.61112567921225, 
					"long" : 120.98246723413467
				},
				"details" : {
					"description" : "Description of Bambang Station",
					"image" : "test",
					"stops" : [
						"x1",
						"x2"
					]
				}
			},
			{
				"name" : "LRT-1 Tayuman",
				"position" : {
					"lat" : 14.616625404810092, 
					"long" : 120.98275691270828
				},
				"details" : {
					"description" : "Description of Tayuman Station",
					"image" : "test",
					"stops" : [
						"x1",
						"x2"
					]
				}
			},
			{
				"name" : "LRT-1 Blumentritt",
				"position" : {
					"lat" : 14.622612915549334, 
					"long" : 120.98289102315903
				},
				"details" : {
					"description" : "Description of Blumentritt Station",
					"image" : "test",
					"stops" : [
						"x1",
						"x2"
					]
				}
			},
			{
				"name" : "LRT-1 Abad Santos",
				"position" : {
					"lat" : 14.63052074737543, 
					"long" : 120.98150163888931
				},
				"details" : {
					"description" : "Description of Abad Santos Station",
					"image" : "test",
					"stops" : [
						"x1",
						"x2"
					]
				}
			},
			{
				"name" : "LRT-1 R. Papa",
				"position" : {
					"lat" : 14.635931751356564, 
					"long" : 120.9822928905487
				},
				"details" : {
					"description" : "Description of R. Papa Station",
					"image" : "test",
					"stops" : [
						"x1",
						"x2"
					]
				}
			},
			{
				"name" : "LRT-1 5th Avenue",
				"position" : {
					"lat" : 14.64431400240351, 
					"long" : 120.98354816436768
				},
				"details" : {
					"description" : "Description of 5th Avenue Station",
					"image" : "test",
					"stops" : [
						"x1",
						"x2"
					]
				}
			},
			{
				"name" : "LRT-1 Monumento",
				"position" : {
					"lat" : 14.65420879842159, 
					"long" : 120.98388075828552
				},
				"details" : {
					"description" : "Description of Monumento Station",
					"image" : "test",
					"stops" : [
						"x1",
						"x2"
					]
				}
			},
			{
				"name" : "LRT-1 Balintawak",
				"position" : {
					"lat" : 14.65739278804463, 
					"long" : 121.00391954183578
				},
				"details" : {
					"description" : "Description of Balintawak Station",
					"image" : "test",
					"stops" : [
						"x1",
						"x2"
					]
				}
			},
			{
				"name" : "LRT-1 Roosevelt",
				"position" : {
					"lat" :  14.657496584808488, 
					"long" : 121.02119028568268
				},
				"details" : {
					"description" : "Description of Roosevelt Station",
					"image" : "test",
					"stops" : [
						"x1",
						"x2"
					]
				}
			}
		]
	},
	{
		"name" : "LRT2",
		"stops" : [
			{
				"name" : "LRT-2 Recto",
				"position" : {
					"lat" : 14.603500065120615, 
					"long" : 120.98353207111359
				},
				"details" : {
					"description" : "Description of Recto Station",
					"image" : "test",
					"stops" : [
						"x1",
						"x2"
					]
				}
			},
			{
				"name" : "LRT-2 Legarda",
				"position" : {
					"lat" : 14.600847389914959, 
					"long" : 120.9924852848053
				},
				"details" : {
					"description" : "Description of Legarda Station",
					"image" : "test",
					"stops" : [
						"x1",
						"x2"
					]
				}
			},
			{
				"name" : "LRT-2 Pureza",
				"position" : {
					"lat" : 14.60169874121695, 
					"long" : 121.00505411624908
				},
				"details" : {
					"description" : "Description of Pureza Station",
					"image" : "test",
					"stops" : [
						"x1",
						"x2"
					]
				}
			},
			{
				"name" : "LRT-2 V. Mapa",
				"position" : {
					"lat" : 14.603985433735462, 
					"long" : 121.01700335741043
				},
				"details" : {
					"description" : "Description of V. Mapa Station",
					"image" : "test",
					"stops" : [
						"x1",
						"x2"
					]
				}
			},
			{
				"name" : "LRT-2 J. Ruiz",
				"position" : {
					"lat" : 14.610568950851428, 
					"long" : 121.02609604597092
				},
				"details" : {
					"description" : "Description of J. Ruiz Station",
					"image" : "test",
					"stops" : [
						"x1",
						"x2"
					]
				}
			},
			{
				"name" : "LRT-2 Gilmore",
				"position" : {
					"lat" : 14.613508304935424, 
					"long" : 121.0341440141201
				},
				"details" : {
					"description" : "Description of Gilmore Station",
					"image" : "test",
					"stops" : [
						"x1",
						"x2"
					]
				}
			},
			{
				"name" : "LRT-2 Araneta Center- Cubao",
				"position" : {
					"lat" : 14.622832220928029, 
					"long" : 121.05285510420799
				},
				"details" : {
					"description" : "Description of Araneta Center Station",
					"image" : "test",
					"stops" : [
						"x1",
						"x2"
					]
				}
			},
			{
				"name" : "LRT-2 Anonas",
				"position" : {
					"lat" : 14.62800205469682, 
					"long" : 121.06465011835098
				},
				"details" : {
					"description" : "Description of Anonas Station",
					"image" : "test",
					"stops" : [
						"x1",
						"x2"
					]
				}
			},
			{
				"name" : "LRT-2 Katipunan",
				"position" : {
					"lat" : 14.630947663568637, 
					"long" : 121.07262030243874
				},
				"details" : {
					"description" : "Description of Katipunan Station",
					"image" : "test",
					"stops" : [
						"x1",
						"x2"
					]
				}
			},
			{
				"name" : "LRT-2 Santolan",
				"position" : {
					"lat" : 14.621982249156975, 
					"long" : 121.0859414935112
				},
				"details" : {
					"description" : "Description of Santolan Station",
					"image" : "test",
					"stops" : [
						"x1",
						"x2"
					]
				}
			}
		]
	},
	{
		"name" : "MRT",
		"stops" : [
			{
				"name" : "MRT-3 Taft Avenue",
				"position" : {
					"lat" : 14.53755006803244, 
					"long" : 121.00144922733307
				},
				"details" : {
					"description" : "Description of Taft Avenue Station",
					"image" : "test",
					"stops" : [
						"x1",
						"x2"
					]
				}
			},
			{
				"name" : "MRT-3 Magallanes",
				"position" : {
					"lat" : 14.541901480362466, 					
					"long" : 121.01931273937225
				},
				"details" : {
					"description" : "Description of Magallanes Station",
					"image" : "test",
					"stops" : [
						"x1",
						"x2"
					]
				}
			},
			{
				"name" : "MRT-3 Ayala",
				"position" : {
					"lat" : 14.54918263460663, 					
					"long" : 121.02807819843292
				},
				"details" : {
					"description" : "Description of Ayala Station",
					"image" : "test",
					"stops" : [
						"x1",
						"x2"
					]
				}
			},
			{
				"name" : "MRT-3 Buendia",
				"position" : {
					"lat" : 14.554687801473998, 					
					"long" : 121.03461608290672
				},
				"details" : {
					"description" : "Description of Buendia Station",
					"image" : "test",
					"stops" : [
						"x1",
						"x2"
					]
				}
			},
			{
				"name" : "MRT-3 Guadalupe",
				"position" : {
					"lat" : 14.56705802431508, 					
					"long" : 121.04554608464241
				},
				"details" : {
					"description" : "Description of Guadalupe Station",
					"image" : "test",
					"stops" : [
						"x1",
						"x2"
					]
				}
			},
			{
				"name" : "MRT-3 Boni Avenue",
				"position" : {
					"lat" : 14.57370105381468, 					
					"long" : 121.04808211326599
				},
				"details" : {
					"description" : "Description of Boni Avenue Station",
					"image" : "test",
					"stops" : [
						"x1",
						"x2"
					]
				}
			},
			{
				"name" : "MRT-3 Shaw Boulevard",
				"position" : {
					"lat" : 14.581196611595162,  					
					"long" : 121.0536128282547
				},
				"details" : {
					"description" : "Description of Shaw Boulevard Station",
					"image" : "test",
					"stops" : [
						"x1",
						"x2"
					]
				}
			},
			{
				"name" : "MRT-3 Ortigas Avenue",
				"position" : {
					"lat" : 14.587797682935673,   					
					"long" : 121.0567094385624
				},
				"details" : {
					"description" : "Description of Ortigas Avenue Station",
					"image" : "test",
					"stops" : [
						"x1",
						"x2"
					]
				}
			},
			{
				"name" : "MRT-3 Santolan-Annapolis",
				"position" : {
					"lat" : 14.607822922734975,    					
					"long" : 121.05641573667526
				},
				"details" : {
					"description" : "Description of Santolan-Annapolis Station",
					"image" : "test",
					"stops" : [
						"x1",
						"x2"
					]
				}
			},
			{
				"name" : "MRT-3 Araneta Center - Cubao",
				"position" : {
					"lat" : 14.619571166294019,     					
					"long" : 121.05099231004715
				},
				"details" : {
					"description" : "Description of Araneta Center - Cubao Station",
					"image" : "test",
					"stops" : [
						"x1",
						"x2"
					]
				}
			},
			{
				"name" : "MRT-3 GMA - Kamuning",
				"position" : {
					"lat" : 14.635205101503816,      					
					"long" : 121.04333460330963
				},
				"details" : {
					"description" : "Description of GMA Kamuning",
					"image" : "test",
					"stops" : [
						"x1",
						"x2"
					]
				}
			},
			{
				"name" : "MRT-3 Quezon Avenue",
				"position" : {
					"lat" : 14.642606436687998,       					
					"long" : 121.03848248720169
				},
				"details" : {
					"description" : "Description of Quezon Avenue",
					"image" : "test",
					"stops" : [
						"x1",
						"x2"
					]
				}
			}, 
			{
				"name" : "MRT-3 North Avenue",
				"position" : {
					"lat" : 14.652153582503889,        					
					"long" : 121.03233218193054
				},
				"details" : {
					"description" : "Description of North Station",
					"image" : "test",
					"stops" : [
						"x1",
						"x2"
					]
				}
			}
		]
	},
	{
		"name" : "PNR",
		"stops" : [
			{
				"name" : "PNR Alabang",
				"position" : {
					"lat" : 14.417033139896843, 
					"long" : 121.0476154088974
				},
				"details" : {
					"description" : "Description of Alabang Station",
					"image" : "test",
					"stops" : [
						"x1",
						"x2"
					]
				}
			},
			{
				"name" : "PNR Sucat",
				"position" : {
					"lat" : 14.452303814430618, 
					"long" : 121.0509379953146
				},
				"details" : {
					"description" : "Description of Sucat Station",
					"image" : "test",
					"stops" : [
						"x1",
						"x2"
					]
				}
			},
			{
				"name" : "PNR Bicutan",
				"position" : {
					"lat" : 14.48803049600591, 
					"long" : 121.04542471468449
				},
				"details" : {
					"description" : "Description of Bicutan Station",
					"image" : "test",
					"stops" : [
						"x1",
						"x2"
					]
				}
			},
			{
				"name" : "PNR FTI",
				"position" : {
					"lat" : 14.506600903312087, 
					"long" : 121.03542409837246
				},
				"details" : {
					"description" : "Description of FTI Station",
					"image" : "test",
					"stops" : [
						"x1",
						"x2"
					]
				}
			},
			{
				"name" : "PNR Nichols",
				"position" : {
					"lat" :  14.52351579005844, 
					"long" : 121.02632135152817
				},
				"details" : {
					"description" : "Description of Nichols Station",
					"image" : "test",
					"stops" : [
						"x1",
						"x2"
					]
				}
			},
			{
				"name" : "PNR EDSA",
				"position" : {
					"lat" :  14.541826837227935, 
					"long" : 121.01641997694969
				},
				"details" : {
					"description" : "Description of EDSA Station",
					"image" : "test",
					"stops" : [
						"x1",
						"x2"
					]
				}
			},
			{
				"name" : "PNR Pasay Rd",
				"position" : {
					"lat" : 14.549832980971122, 
					"long" : 121.01210631430149
				},
				"details" : {
					"description" : "Description of Pasay Rd Station",
					"image" : "test",
					"stops" : [
						"x1",
						"x2"
					]
				}
			},
			{
				"name" : "PNR Buendia",
				"position" : {
					"lat" : 14.557335191345777,
					"long" : 121.0080648958683
				},
				"details" : {
					"description" : "Description of Buendia Station",
					"image" : "test",
					"stops" : [
						"x1",
						"x2"
					]
				}
			},
			{
				"name" : "PNR Vito Cruz",
				"position" : {
					"lat" : 14.56716900271235, 
					"long" : 121.00276485085487
				},
				"details" : {
					"description" : "Description of Vito Cruz Station",
					"image" : "test",
					"stops" : [
						"x1",
						"x2"
					]
				}
			},
			{
				"name" : "PNR San Andres",
				"position" : {
					"lat" : 14.573271430568829, 
					"long" : 120.9994737803936
				},
				"details" : {
					"description" : "Description of San Andres Station",
					"image" : "test",
					"stops" : [
						"x1",
						"x2"
					]
				}
			},
			{
				"name" : "PNR Paco",
				"position" : {
					"lat" : 14.57911215826824, 
					"long" : 120.9992565214634
				},
				"details" : {
					"description" : "Description of Paco Station",
					"image" : "test",
					"stops" : [
						"x1",
						"x2"
					]
				}
			},
			{
				"name" : "PNR Pandacan",
				"position" : {
					"lat" : 14.590246752070831, 
					"long" : 121.00880585610867
				},
				"details" : {
					"description" : "Description of Pandacan Station",
					"image" : "test",
					"stops" : [
						"x1",
						"x2"
					]
				}
			},
			{
				"name" : "PNR Santa Mesa",
				"position" : {
					"lat" : 14.600798073732479, 
					"long" : 121.01028442382812
				},
				"details" : {
					"description" : "Description of Santa Mesa Station",
					"image" : "test",
					"stops" : [
						"x1",
						"x2"
					]
				}
			},
			{
				"name" : "PNR Espana",
				"position" : {
					"lat" : 14.612235887385992, 
					"long" : 120.99688276648521
				},
				"details" : {
					"description" : "Description of Espana Station",
					"image" : "test",
					"stops" : [
						"x1",
						"x2"
					]
				}
			},
			{
				"name" : "PNR Laong Laan",
				"position" : {
					"lat" : 14.616708457657383, 
					"long" : 120.99258653819561
				},
				"details" : {
					"description" : "Description of Laong Laan Station",
					"image" : "test",
					"stops" : [
						"x1",
						"x2"
					]
				}
			},
			{
				"name" : "PNR Blumentritt",
				"position" : {
					"lat" : 14.622648601350736, 
					"long" : 120.9834636747837
				},
				"details" : {
					"description" : "Description of Blumentritt Station",
					"image" : "test",
					"stops" : [
						"x1",
						"x2"
					]
				}
			},
			{
				"name" : "PNR Tutuban",
				"position" : {
					"lat" : 14.611323583476302, 
					"long" : 120.97309894859791
				},
				"details" : {
					"description" : "Description of Tutuban Station",
					"image" : "test",
					"stops" : [
						"x1",
						"x2"
					]
				}
			}
		]
	}
]